Vers 81
USE_SERIAL_FEEDBACK=true
DEVELOPMENT_MODE=false
USE_RMC_ONLY=false

$GPGGA,181134.000,4308.3077,N,07726.2639,W,1,05,1.58,160.1,M,-34.4,M,,*57
$GPRMC,181134.000,A,4308.3077,N,07726.2639,W,0.33,285.95,080921,,,A*75
$GPGGA,181134.250,4308.3077,N,07726.2637,W,1,05,1.58,159.6,M,-34.4,M,,*53
$GPRMC,181134.250,A,4308.3077,N,07726.2637,W,0.29,286.10,080921,,A*79
$GPGGA,181134.500,4308.3079,N,07726.2633,W,1,05,1.58,158.9,M,-34.4,M,,*55
$GPRMC,181134.500,A,4308.3079,N,07726.2633,W,0.28,296.12,080921,,A*73
$GPGGA,181134.750,4308.3080,N,07726.2630,W,1,05,1.58,158.2,M,-34.4,M,,*5C
$GPRMC,181134.750,A,4308.3080,N,07726.2630,W,0.28,303.14,080921$GPGGA,181135.000,4308.3080,N,07726.2628,W,1,05,1.58,157.9,M,-34.4,M,,*52
$GPRMC,181135.250,A,4308.3081,N,07726.2627,W,0.24,285.95,080921,,,A*73
$GPGGA,181135.500,4308.3081,N,07726.2626,W,1,05,1.58,157.3,M,-34.4,M,,*52
$GPRMC,181135.750,A,4308.3081,N,07726.2625,W,0.22,278.24,080921,,,A*7A
$GPGGA,181136.000,4308.3082,N,07726.2625,W,1,05,1.58,156.9,M,-34.4,M,,*5F
$GPRMC,181136.250,A,4308.3083,N,07726.2624,W,0.21,288.92,080921,,,A*7E
$GPGGA,181136.500,4308.3084,N,07726.2624,W,1,05,1.58,156.4,M,-34.4,M,,*50
$GPRMC,181136.750,A,4308.3085,N,07726.2623,W,0.23,290.20,080921,,,A*78
$GPGGA,181137.000,4308.3086,N,07726.2622,W,1,05,1.58,155.8,M,-34.4,M,,*5F
$GPRMC,181137.250,A,4308.3086,N,07726.2621,W,0.24,302.52,080921,,,A*75
$GPGGA,181137.500,4308.3087,N,07726.2621,W,1,05,1.58,155.1,M,-34.4,M,,*51
$GPRMC,181137.750,A,4308.3088,N,07726.2621,W,0.28,296.91,080921,,,A*71
$GPGGA,181138.000,4308.3088,N,07726.2620,W,1,05,1.58,154.4,M,-34.4,M,,*51
$GPRMC,181138.250,A,4308.3089,N,07726.2620,W,0.30,298.71,080921,,,A*72
$GPGGA,181138.500,4308.3090,N,07726.2619,W,1,05,1.58,153.9,M,-34.4,M,,*5D
$GPRMC,181138.750,A,4308.3090,N,07726.2618,W,0.20,308.50,080921,,,A*7E
$GPGGA,181139.000,4308.3090,N,07726.2617,W,1,05,1.58,153.5,M,-34.4,M,,*5B
$GPRMC,181139.250,A,4308.3090,N,07726.2617,W,0.13,299.29,080921,,,A*72
$GPGGA,181139.500,4308.3089,N,07726.2617,W,1,05,1.58,153.7,M,-34.4,M,,*54
$GPRMC,181139.750,A,4308.3089,N,07726.2618,W,0.29,274.73,080921,,,A*75
$GPGGA,181140.000,4308.3089,N,07726.2617,W,1,05,1.58,153.8,M,-34.4,M,,*50
$GPRMC,181140.250,A,4308.3088,N,07726.2617,W,0.22,269.06,080921,,,A*75
$GPGGA,181140.500,4308.3088,N,07726.2616,W,1,05,1.58,154.1,M,-34.4,M,,*5B
$GPRMC,181140.750,A,4308.3088,N,07726.2616,W,0.12,256.16,080921,,,A*7F
$GPGGA,181141.000,4308.3089,N,07726.2616,W,1,05,1.58,154.1,M,-34.4,M,,*5E
$GPRMC,181141.250,A,4308.3089,N,07726.2615,W,0.20,283.94,080921,,,A*7A
$GPGGA,181141.500,4308.3089,N,07726.2615,W,1,05,1.58,153.9,M,-34.4,M,,*57
$GPRMC,181141.750,A,4308.3089,N,07726.2615,W,0.24,280.61,080921,,,A*72
$GPGGA,181142.000,4308.3089,N,07726.2614,W,1,05,1.58,153.9,M,-34.4,M,,*50
$GPRMC,181142.250,A,4308.3089,N,07726.2613,W,0.14,254.00,080921,,,A*7F
$GPGGA,181142.500,4308.3089,N,07726.2613,W,1,05,1.58,153.9,M,-34.4,M,,*52
$GPRMC,181142.750,A,4308.3090,N,07726.2612,W,0.05,283.02,080921,,,A*7B
$GPGGA,181143.000,4308.3090,N,07726.2612,W,1,05,1.58,154.0,M,-34.4,M,,*51
$GPRMC,181143.250,A,4308.3091,N,07726.2612,W,0.15,285.01,080921,,,A*7A
$GPGGA,181143.500,4308.3091,N,07726.2613,W,1,05,1.58,154.0,M,-34.4,M,,*54
$GPRMC,181143.750,A,4308.3091,N,07726.2613,W,0.18,256.51,080921,,,A*78
$GPGGA,181144.000,4308.3091,N,07726.2612,W,1,05,1.58,153.9,M,-34.4,M,,*59
$GPRMC,181144.250,A,4308.3091,N,07726.2612,W,0.16,240.30,080921,,,A*75
$GPGGA,181144.500,4308.3091,N,07726.2611,W,1,05,1.58,153.9,M,-34.4,M,,*5F
$GPRMC,181144.750,A,4308.3091,N,07726.2610,W,0.08,191.16,080921,,,A*76
$GPGGA,181145.000,4308.3091,N,07726.2610,W,1,05,1.58,153.9,M,-34.4,M,,*5A
$GPRMC,181145.250,A,4308.3091,N,07726.2609,W,0.04,286.39,080921,,,A*7E
$GPGGA,181145.500,4308.3092,N,07726.2609,W,1,05,1.58,153.7,M,-34.4,M,,*5A
$GPRMC,181145.750,A,4308.3092,N,07726.2608,W,0.03,151.50,080921,,,A*78
$GPGGA,181146.000,4308.3092,N,07726.2607,W,1,05,1.58,153.5,M,-34.4,M,,*50
$GPRMC,181146.250,A,4308.3092,N,07726.2606,W,0.07,153.03,080921,,,A*70
$GPGGA,181146.500,4308.3092,N,07726.2605,W,1,05,1.58,153.4,M,-34.4,M,,*56
$GPRMC,181146.750,A,4308.3093,N,07726.2604,W,0.15,147.75,080921,,,A*71
$GPGGA,181147.000,4308.3093,N,07726.2604,W,1,05,1.58,153.2,M,-34.4,M,,*54
$GPRMC,181147.250,A,4308.3093,N,07726.2603,W,0.19,149.98,080921,,,A*73
$GPGGA,181147.500,4308.3094,N,07726.2603,W,1,05,1.58,153.0,M,-34.4,M,,*53
$GPRMC,181147.750,A,4308.3094,N,07726.2602,W,0.09,131.97,080921,,,A*71
$GPGGA,181148.000,4308.3095,N,07726.2602,W,1,05,1.58,153.0,M,-34.4,M,,*59
$GPRMC,181148.250,A,4308.3096,N,07726.2602,W,0.05,70.40,080921,,,A*4B
$GPGGA,181148.500,4308.3096,N,07726.2601,W,1,05,1.58,153.0,M,-34.4,M,,*5C
$GPRMC,181148.750,A,4308.3096,N,07726.2601,W,0.14,121.65,080921,,,A*7F
$GPGGA,181149.000,4308.3096,N,07726.2600,W,1,05,1.58,153.0,M,-34.4,M,,*59
$GPRMC,181149.250,A,4308.3096,N,07726.2600,W,0.18,125.85,080921,,,A*7C
$GPGGA,181149.500,4308.3097,N,07726.2601,W,1,05,1.58,153.1,M,-34.4,M,,*5D
$GPRMC,181149.750,A,4308.3097,N,07726.2602,W,0.01,54.57,080921,,,A*4A
$GPGGA,181150.000,4308.3097,N,07726.2602,W,1,05,1.58,153.1,M,-34.4,M,,*53
$GPRMC,181150.250,A,4308.3097,N,07726.2602,W,0.05,171.94,080921,,,A*7A
$GPGGA,181150.500,4308.3098,N,07726.2602,W,1,05,1.58,153.2,M,-34.4,M,,*5A
$GPRMC,181150.750,A,4308.3098,N,07726.2602,W,0.09,140.92,080921,,,A*78
$GPGGA,181151.000,4308.3098,N,07726.2602,W,1,05,1.58,153.3,M,-34.4,M,,*5F
$GPRMC,181151.250,A,4308.3098,N,07726.2603,W,0.08,115.56,080921,,,A*74
$GPGGA,181151.500,4308.3099,N,07726.2603,W,1,05,1.58,153.4,M,-34.4,M,,*5D
$GPRMC,181151.750,A,4308.3099,N,07726.2604,W,0.02,129.73,080921,,,A*75
$GPGGA,181152.000,4308.3099,N,07726.2604,W,1,05,1.58,153.5,M,-34.4,M,,*5D
$GPRMC,181152.250,A,4308.3099,N,07726.2604,W,0.05,37.20,080921,,,A*4C
$GPGGA,181152.500,4308.3099,N,07726.2604,W,1,05,1.58,153.7,M,-34.4,M,,*5A
$GPRMC,181152.750,A,4308.3099,N,07726.2604,W,0.08,91.65,080921,,,A*49
$GPGGA,181153.000,4308.3099,N,07726.2605,W,1,05,1.58,154.0,M,-34.4,M,,*5F
$GPRMC,181153.250,A,4308.3099,N,07726.2605,W,0.10,85.59,080921,,,A*4F
$GPGGA,181153.500,4308.3100,N,07726.2606,W,1,05,1.58,154.3,M,-34.4,M,,*5B
$GPRMC,181153.750,A,4308.3100,N,07726.2607,W,0.06,326.86,080921,,,A*76
$GPGGA,181154.000,4308.3100,N,07726.2608,W,1,05,1.58,154.7,M,-34.4,M,,*53
$GPRMC,181154.250,A,4308.3100,N,07726.2609,W,0.11,331.10,080921,,,A*75
$GPGGA,181154.500,4308.3100,N,07726.2611,W,1,05,1.58,155.3,M,-34.4,M,,*5B
$GPRMC,181154.750,A,4308.3100,N,07726.2611,W,0.14,329.44,080921,,,A*74
$GPGGA,181155.000,4308.3100,N,07726.2612,W,1,05,1.58,155.7,M,-34.4,M,,*58
$GPRMC,181155.250,A,4308.3100,N,07726.2613,W,0.14,321.59,080921,,,A*76
$GPGGA,181155.500,4308.3100,N,07726.2615,W,1,05,1.58,156.2,M,-34.4,M,,*5C
$GPRMC,181155.750,A,4308.3100,N,07726.2616,W,0.23,323.30,080921,,,A*7F
$GPGGA,181156.000,4308.3100,N,07726.2617,W,1,05,1.58,156.9,M,-34.4,M,,*53
$GPRMC,181156.250,A,4308.3099,N,07726.2620,W,0.22,311.64,080921,,,A*7C
$GPGGA,181156.500,4308.3099,N,07726.2622,W,1,06,1.44,157.7,M,-34.4,M,,*50
$GPRMC,181156.750,A,4308.3099,N,07726.2623,W,0.21,305.90,080921,,,A*77
$GPGGA,181157.000,4308.3098,N,07726.2624,W,1,06,1.44,158.2,M,-34.4,M,,*59
$GPRMC,181157.250,A,4308.3098,N,07726.2626,W,0.18,280.09,080921,,,A*71
$GPGGA,181157.500,4308.3097,N,07726.2627,W,1,06,1.44,158.6,M,-34.4,M,,*54
$GPRMC,181157.750,A,4308.3097,N,07726.2629,W,0.22,264.09,080921,,,A*77
$GPGGA,181158.000,4308.3096,N,07726.2631,W,1,06,1.44,159.3,M,-34.4,M,,*5C
$GPRMC,181158.250,A,4308.3095,N,07726.2632,W,0.16,231.27,080921,,,A*7E
$GPGGA,181158.500,4308.3095,N,07726.2633,W,1,06,1.44,159.9,M,-34.4,M,,*52
$GPRMC,181158.750,A,4308.3095,N,07726.2635,W,0.12,230.77,080921,,,A*7C
$GPGGA,181159.000,4308.3094,N,07726.2636,W,1,06,1.44,160.5,M,-34.4,M,,*54
$GPRMC,181159.250,A,4308.3094,N,07726.2637,W,0.07,256.66,080921,,,A*7F
$GPGGA,181159.500,4308.3094,N,07726.2639,W,1,06,1.44,161.0,M,-34.4,M,,*5A
$GPRMC,181159.750,A,4308.3094,N,07726.2639,W,0.07,267.75,080921,,,A*74
$GPGGA,181200.000,4308.3094,N,07726.2640,W,1,06,1.44,161.3,M,-34.4,M,,*5D
$GPRMC,181200.250,A,4308.3094,N,07726.2641,W,0.03,344.25,080921,,,A*70
$GPGGA,181200.500,4308.3095,N,07726.2641,W,1,06,1.44,161.6,M,-34.4,M,,*5D
$GPRMC,181200.750,A,4308.3096,N,07726.2642,W,0.18,352.17,080921,,,A*78
$GPGGA,181201.000,4308.3096,N,07726.2643,W,1,06,1.53,161.7,M,-34.4,M,,*5F
$GPGGA,181201.500,4308.3096,N,07726.2643,W,1,06,1.53,161.7,M,-34.4,M,,*5A
$GPRMC,181201.500,A,4308.3096,N,07726.2643,W,0.10,21.41,080921,,A*43
$GPGGA,181201.750,4308.3096,N,07726.2643,W,1,06,1.44,161.7,M,-34.4,M,,*5B
$GPRMC,181201.750,A,4308.3096,N,07726.2643,W,0.10,45.62,080921,,,A*47
$GPGGA,181202.000,4308.3096,N,07726.2643,W,1,06,1.44,161.7,M,-34.4,M,,*5A
$GPRMC,181202.000,A,4308.3096,N,07726.2643,W,0.09,69.27,080921,,A*41
$GPGGA,181202.250,4308.3097,N,07726.2643,W,1,06,1.44,161.7,M,-34.4,M,,*5C
$GPRMC,181202.250,A,4308.3097,N,07726.2643,W,0.08,69.11,080921,$GPGGA,181202.500,4308.3097,N,07726.2643,W,1,06,1.44,161.7,M,-34.4,M,,*5E
$GPRMC,181202.750,A,4308.3097,N,07726.2643,W,0.01,284.93,080921,,,A*74
$GPGGA,181203.000,4308.3098,N,07726.2643,W,1,06,1.44,161.6,M,-34.4,M,,*54
$GPRMC,181203.250,A,4308.3098,N,07726.2643,W,0.03,29.33,080921,,,A*42
$GPGGA,181203.500,4308.3098,N,07726.2643,W,1,06,1.44,161.5,M,-34.4,M,,*52
$GPRMC,181203.750,A,4308.3099,N,07726.2644,W,0.03,294.21,080921,,,A*76
$GPGGA,181204.000,4308.3099,N,07726.2644,W,1,06,1.44,161.4,M,-34.4,M,,*57
$GPRMC,181204.250,A,4308.3099,N,07726.2644,W,0.10,288.40,080921,,,A*7C
$GPGGA,181204.500,4308.3099,N,07726.2644,W,1,06,1.44,161.4,M,-34.4,M,,*52
$GPRMC,181204.750,A,4308.3099,N,07726.2644,W,0.03,116.15,080921,,,A*7F
$GPGGA,181205.000,4308.3099,N,07726.2644,W,1,06,1.44,161.5,M,-34.4,M,,*57
$GPRMC,181205.250,A,4308.3099,N,07726.2644,W,0.08,87.63,080921,,,A*48
$GPGGA,181205.500,4308.3100,N,07726.2644,W,1,06,1.44,161.5,M,-34.4,M,,*53
$GPRMC,181205.750,A,4308.3100,N,07726.2644,W,0.05,73.41,080921,,,A*4A
$GPGGA,181206.000,4308.3100,N,07726.2644,W,1,06,1.44,161.5,M,-34.4,M,,*55
$GPRMC,181206.250,A,4308.3100,N,07726.2644,W,0.11,60.89,080921,,,A*4F
$GPGGA,181206.500,4308.3100,N,07726.2644,W,1,06,1.45,161.5,M,-34.4,M,,*51
$GPRMC,181206.750,A,4308.3100,N,07726.2644,W,0.13,54.76,080921,,,A*4F
$GPGGA,181207.000,4308.3100,N,07726.2644,W,1,06,1.44,161.5,M,-34.4,M,,*54
$GPRMC,181207.250,A,4308.3100,N,07726.2644,W,0.12,54.79,080921,,,A*45
$GPGGA,181207.500,4308.3100,N,07726.2644,W,1,06,1.44,161.5,M,-34.4,M,,*51
$GPRMC,181207.750,A,4308.3100,N,07726.2644,W,0.10,352.93,080921,,,A*73
$GPGGA,181208.000,4308.3100,N,07726.2644,W,1,06,1.53,161.5,M,-34.4,M,,*5D
$GPRMC,181208.250,A,4308.3100,N,07726.2644,W,0.12,336.66,080921,,,A*73
$GPGGA,181208.500,4308.3100,N,07726.2644,W,1,06,1.44,161.5,M,-34.4,M,,*5E
$GPRMC,181208.750,A,4308.3101,N,07726.2644,W,0.11,344.05,080921,,,A*74
$GPGGA,181209.000,4308.3101,N,07726.2644,W,1,06,1.44,161.5,M,-34.4,M,,*5B
$GPRMC,181209.250,A,4308.3101,N,07726.2644,W,0.09,309.30,080921,,,A*76
$GPGGA,181209.500,4308.3101,N,07726.2644,W,1,06,1.44,161.5,M,-34.4,M,,*5E
$GPRMC,181209.750,A,4308.3101,N,07726.2644,W,0.14,334.95,080921,,,A*7E
$GPGGA,181210.000,4308.3101,N,07726.2644,W,1,06,1.44,161.5,M,-34.4,M,,*53
$GPRMC,181210.250,A,4308.3101,N,07726.2644,W,0.14,340.37,080921,,,A*78
$GPGGA,181210.500,4308.3101,N,07726.2644,W,1,06,1.44,161.5,M,-34.4,M,,*56
$GPRMC,181210.750,A,4308.3101,N,07726.2644,W,0.05,305.36,080921,,,A*7D
$GPGGA,181211.000,4308.3101,N,07726.2644,W,1,06,1.44,161.5,M,-34.4,M,,*52
$GPRMC,181211.250,A,4308.3101,N,07726.2644,W,0.05,99.17,080921,,,A*4C
$GPGGA,181211.500,4308.3101,N,07726.2644,W,1,06,1.44,161.5,M,-34.4,M,,*57
$GPRMC,181211.750,A,4308.3101,N,07726.2644,W,0.05,19.92,080921,,,A*4C
$GPGGA,181212.000,4308.3101,N,07726.2644,W,1,06,1.44,161.5,M,-34.4,M,,*51
$GPRMC,181212.250,A,4308.3101,N,07726.2644,W,0.11,340.86,080921,,,A*75
$GPGGA,181212.500,4308.3101,N,07726.2644,W,1,06,1.44,161.5,M,-34.4,M,,*54
$GPRMC,181212.750,A,4308.3101,N,07726.2644,W,0.11,315.00,080921,,,A*7E
$GPGGA,181213.000,4308.3101,N,07726.2644,W,1,06,1.45,161.5,M,-34.4,M,,*51
$GPRMC,181213.250,A,4308.3101,N,07726.2645,W,0.09,326.26,080921,,,A*76
$GPGGA,181213.500,4308.3101,N,07726.2645,W,1,06,1.44,161.5,M,-34.4,M,,*54
$GPRMC,181213.750,A,4308.3102,N,07726.2645,W,0.08,6.73,080921,,,A*70
$GPGGA,181214.000,4308.3102,N,07726.2645,W,1,06,1.53,161.5,M,-34.4,M,,*53
$GPRMC,181214.250,A,4308.3102,N,07726.2645,W,0.06,28.51,080921,,,A*40
$GPGGA,181214.500,4308.3102,N,07726.2645,W,1,06,1.44,161.5,M,-34.4,M,,*50
$GPRMC,181214.750,A,4308.3102,N,07726.2645,W,0.05,34.56,080921,,,A*4C
$GPGGA,181215.000,4308.3102,N,07726.2645,W,1,06,1.44,161.5,M,-34.4,M,,*54
$GPRMC,181215.250,A,4308.3102,N,07726.2645,W,0.12,338.71,080921,,,A*74
$GPGGA,181215.500,4308.3102,N,07726.2645,W,1,06,1.44,161.5,M,-34.4,M,,*51
$GPRMC,181215.750,A,4308.3102,N,07726.2645,W,0.13,304.58,080921,,,A*74
$GPGGA,181216.000,4308.3102,N,07726.2645,W,1,06,1.44,161.5,M,-34.4,M,,*57
$GPRMC,181216.250,A,4308.3102,N,07726.2645,W,0.24,286.32,080921,,,A*71
$GPGGA,181216.500,4308.3102,N,07726.2645,W,1,06,1.53,161.5,M,-34.4,M,,*54
$GPRMC,181216.750,A,4308.3102,N,07726.2645,W,0.00,265.46,080921,,,A*7C
$GPGGA,181217.000,4308.3102,N,07726.2645,W,1,06,1.53,161.5,M,-34.4,M,,*50
$GPRMC,181217.250,A,4308.3102,N,07726.2645,W,0.03,35.90,080921,,,A*47
$GPGGA,181217.500,4308.3102,N,07726.2645,W,1,06,1.53,161.5,M,-34.4,M,,*55
$GPRMC,181217.750,A,4308.3102,N,07726.2645,W,0.03,247.80,080921,,,A*74
$GPGGA,181218.000,4308.3102,N,07726.2645,W,1,06,1.53,161.5,M,-34.4,M,,*5F
$GPRMC,181218.250,A,4308.3102,N,07726.2645,W,0.03,173.73,080921,,,A*76
$GPGGA,181218.500,4308.3102,N,07726.2645,W,1,06,1.53,161.5,M,-34.4,M,,*5A
$GPRMC,181218.750,A,4308.3102,N,07726.2645,W,0.02,41.75,080921,,,A*44
$GPGGA,181219.000,4308.3102,N,07726.2645,W,1,06,1.53,161.5,M,-34.4,M,,*5E
$GPRMC,181219.250,A,4308.3102,N,07726.2645,W,0.02,257.83,080921,,,A*7C
$GPGGA,181219.500,4308.3102,N,07726.2645,W,1,06,1.53,161.5,M,-34.4,M,,*5B
$GPRMC,181219.750,A,4308.3102,N,07726.2645,W,0.02,304.10,080921,,,A*74
$GPGGA,181220.000,4308.3102,N,07726.2645,W,1,06,1.53,161.5,M,-34.4,M,,*54
$GPRMC,181220.250,A,4308.3102,N,07726.2645,W,0.01,167.11,080921,,,A*7E
$GPGGA,181220.500,4308.3102,N,07726.2645,W,1,06,1.53,161.5,M,-34.4,M,,*51
$GPRMC,181220.750,A,4308.3102,N,07726.2645,W,0.02,355.03,080921,,,A*78
$GPGGA,181221.000,4308.3102,N,07726.2645,W,1,06,1.53,161.5,M,-34.4,M,,*55
$GPRMC,181221.250,A,4308.3102,N,07726.2645,W,0.02,27.38,080921,,,A*42
$GPGGA,181221.500,4308.3102,N,07726.2645,W,1,06,1.53,161.5,M,-34.4,M,,*50
$GPRMC,181221.750,A,4308.3102,N,07726.2645,W,0.00,325.90,080921,,,A*76
$GPGGA,181222.000,4308.3102,N,07726.2645,W,1,06,1.53,161.5,M,-34.4,M,,*56
$GPRMC,181222.250,A,4308.3102,N,07726.2645,W,0.02,176.04,080921,,,A*7B
$GPGGA,181222.500,4308.3102,N,07726.2645,W,1,06,1.53,161.5,M,-34.4,M,,*53
$GPRMC,181222.750,A,4308.3102,N,07726.2645,W,0.01,154.37,080921,,,A*7D
$GPGGA,181223.000,4308.3102,N,07726.2645,W,1,06,1.53,161.5,M,-34.4,M,,*57
$GPRMC,181223.250,A,4308.3102,N,07726.2645,W,0.01,116.89,080921,,,A*7A
$GPGGA,181223.500,4308.3102,N,07726.2645,W,1,06,1.53,161.5,M,-34.4,M,,*52
$GPRMC,181223.750,A,4308.3102,N,07726.2645,W,0.01,270.19,080921,,,A*75
$GPGGA,181224.000,4308.3102,N,07726.2645,W,1,06,1.53,161.5,M,-34.4,M,,*50
$GPRMC,181224.250,A,4308.3102,N,07726.2645,W,0.02,3.57,080921,,,A*78
$GPGGA,181224.500,4308.3102,N,07726.2645,W,1,06,1.53,161.5,M,-34.4,M,,*55
$GPRMC,181224.750,A,4308.3102,N,07726.2645,W,0.00,173.44,080921,,,A*7B
$GPGGA,181225.000,4308.3102,N,07726.2645,W,1,06,1.53,161.5,M,-34.4,M,,*51
$GPRMC,181225.250,A,4308.3102,N,07726.2645,W,0.01,335.55,080921,,,A*7E
$GPGGA,181225.500,4308.3102,N,07726.2645,W,1,06,1.53,161.5,M,-34.4,M,,*54
$GPRMC,181225.750,A,4308.3102,N,07726.2645,W,0.01,12.16,080921,,,A*4A
$GPGGA,181226.000,4308.3102,N,07726.2645,W,1,06,1.53,161.5,M,-34.4,M,,*52
$GPRMC,181226.250,A,4308.3102,N,07726.2645,W,0.00,265.86,080921,,,A*76
$GPGGA,181226.500,4308.3102,N,07726.2645,W,1,06,1.53,161.5,M,-34.4,M,,*57
$GPRMC,181226.750,A,4308.3102,N,07726.2645,W,0.01,22.26,080921,,,A*49
$GPGGA,181227.000,4308.3102,N,07726.2645,W,1,06,1.53,161.5,M,-34.4,M,,*53
$GPRMC,181227.250,A,4308.3102,N,07726.2645,W,0.01,276.57,080921,,,A*78
$GPGGA,181227.500,4308.3102,N,07726.2645,W,1,06,1.53,161.5,M,-34.4,M,,*56
$GPRMC,181227.750,A,4308.3102,N,07726.2645,W,0.01,135.27,080921,,,A*7E
$GPGGA,181228.000,4308.3102,N,07726.2645,W,1,06,1.53,161.5,M,-34.4,M,,*5C
$GPRMC,181228.250,A,4308.3102,N,07726.2645,W,0.01,235.01,080921,,,A*73
$GPGGA,181228.500,4308.3102,N,07726.2645,W,1,06,1.53,161.4,M,-34.4,M,,*58
$GPRMC,181228.750,A,4308.3102,N,07726.2645,W,0.01,20.20,080921,,,A*43
$GPGGA,181229.000,4308.3102,N,07726.2645,W,1,06,1.53,161.4,M,-34.4,M,,*5C
$GPRMC,181229.250,A,4308.3102,N,07726.2645,W,0.01,59.40,080921,,,A*4F
$GPGGA,181229.500,4308.3102,N,07726.2645,W,1,06,1.53,161.4,M,-34.4,M,,*59
$GPRMC,181229.750,A,4308.3102,N,07726.2645,W,0.01,11.62,080921,,,A*46
$GPGGA,181230.000,4308.3102,N,07726.2645,W,1,06,1.53,161.4,M,-34.4,M,,*54
$GPRMC,181230.250,A,4308.3102,N,07726.2645,W,0.01,168.35,080921,,,A*76
$GPGGA,181230.500,4308.3102,N,07726.2645,W,1,06,1.53,161.4,M,-34.4,M,,*51
$GPRMC,181230.750,A,4308.3102,N,07726.2645,W,0.01,105.00,080921,,,A*7E
$GPGGA,181231.000,4308.3102,N,07726.2645,W,1,06,1.53,161.4,M,-34.4,M,,*55
$GPRMC,181231.250,A,4308.3102,N,07726.2645,W,0.00,160.57,080921,,,A*7A
$GPGGA,181231.500,4308.3102,N,07726.2645,W,1,06,1.53,161.4,M,-34.4,M,,*50
$GPRMC,181231.750,A,4308.3102,N,07726.2645,W,0.01,70.06,080921,,,A*4A
$GPGGA,181232.000,4308.3102,N,07726.2645,W,1,06,1.53,161.4,M,-34.4,M,,*56
$GPRMC,181232.250,A,4308.3102,N,07726.2645,W,0.00,319.04,080921,,,A*73
$GPGGA,181232.500,4308.3102,N,07726.2645,W,1,06,1.53,161.4,M,-34.4,M,,*53
$GPRMC,181232.750,A,4308.3102,N,07726.2645,W,0.01,137.27,080921,,,A*78
$GPGGA,181233.000,4308.3102,N,07726.2645,W,1,06,1.53,161.4,M,-34.4,M,,*57
$GPRMC,181233.250,A,4308.3102,N,07726.2645,W,0.00,234.08,080921,,,A*70
$GPGGA,181233.500,4308.3102,N,07726.2645,W,1,06,1.53,161.4,M,-34.4,M,,*52
$GPRMC,181233.750,A,4308.3102,N,07726.2645,W,0.00,196.06,080921,,,A*70
$GPGGA,181234.000,4308.3102,N,07726.2645,W,1,06,1.53,161.4,M,-34.4,M,,*50
$GPRMC,181234.250,A,4308.3102,N,07726.2645,W,0.01,123.89,080921,,,A*7A
$GPGGA,181234.500,4308.3102,N,07726.2645,W,1,06,1.53,161.4,M,-34.4,M,,*55
$GPRMC,181234.750,A,4308.3102,N,07726.2645,W,0.00,63.13,080921,,,A*48
$GPGGA,181235.000,4308.3102,N,07726.2645,W,1,06,1.53,161.4,M,-34.4,M,,*51
$GPRMC,181235.250,A,4308.3102,N,07726.2645,W,0.00,262.83,080921,,,A*76
$GPGGA,181235.500,4308.3102,N,07726.2645,W,1,06,1.53,161.4,M,-34.4,M,,*54
$GPRMC,181235.750,A,4308.3102,N,07726.2645,W,0.01,214.28,080921,,,A*72
$GPGGA,181236.000,4308.3102,N,07726.2645,W,1,06,1.53,161.4,M,-34.4,M,,*52
$GPRMC,181236.250,A,4308.3102,N,07726.2645,W,0.01,135.15,080921,,,A*7A
$GPGGA,181236.500,4308.3102,N,07726.2645,W,1,06,1.53,161.4,M,-34.4,M,,*57
$GPRMC,181236.750,A,4308.3102,N,07726.2645,W,0.01,266.73,080921,,,A*7A
$GPGGA,181237.000,4308.3102,N,07726.2645,W,1,06,1.53,161.4,M,-34.4,M,,*53
$GPRMC,181237.250,A,4308.3102,N,07726.2645,W,0.00,264.76,080921,,,A*78
$GPGGA,181237.500,4308.3102,N,07726.2645,W,1,06,1.53,161.4,M,-34.4,M,,*56
$GPRMC,181237.750,A,4308.3102,N,07726.2645,W,0.01,310.25,080921,,,A*78
$GPGGA,181238.000,4308.3102,N,07726.2645,W,1,06,1.53,161.4,M,-34.4,M,,*5C
$GPRMC,181238.250,A,4308.3102,N,07726.2645,W,0.01,95.28,080921,,,A*41
$GPGGA,181238.500,4308.3102,N,07726.2645,W,1,06,1.53,161.4,M,-34.4,M,,*59
$GPRMC,181238.750,A,4308.3102,N,07726.2645,W,0.00,145.96,080921,,,A*7C
$GPGGA,181239.000,4308.3102,N,07726.2645,W,1,06,1.53,161.4,M,-34.4,M,,*5D
$GPRMC,181239.250,A,4308.3102,N,07726.2645,W,0.01,304.59,080921,,,A*7D
$GPGGA,181239.500,4308.3102,N,07726.2645,W,1,06,1.53,161.4,M,-34.4,M,,*58
$GPRMC,181239.750,A,4308.3102,N,07726.2645,W,0.01,75.93,080921,,,A*4B
$GPGGA,181240.000,4308.3102,N,07726.2645,W,1,06,1.53,161.4,M,-34.4,M,,*53
$GPRMC,181240.250,A,4308.3102,N,07726.2645,W,0.01,246.87,080921,,,A*77
$GPGGA,181240.500,4308.3102,N,07726.2645,W,1,06,1.53,161.4,M,-34.4,M,,*56
$GPRMC,181240.750,A,4308.3102,N,07726.2645,W,0.01,193.50,080921,,,A*73
$GPGGA,181241.000,4308.3102,N,07726.2645,W,1,06,1.53,161.4,M,-34.4,M,,*52
$GPRMC,181241.250,A,4308.3102,N,07726.2645,W,0.00,198.65,080921,,,A*7B
$GPGGA,181241.500,4308.3102,N,07726.2645,W,1,06,1.53,161.4,M,-34.4,M,,*57
$GPRMC,181241.750,A,4308.3102,N,07726.2645,W,0.00,271.36,080921,,,A*7C
$GPGGA,181242.000,4308.3102,N,07726.2645,W,1,06,1.53,161.4,M,-34.4,M,,*51
$GPRMC,181242.250,A,4308.3102,N,07726.2645,W,0.00,189.13,080921,,,A*79
$GPGGA,181242.500,4308.3102,N,07726.2645,W,1,06,1.53,161.4,M,-34.4,M,,*54
$GPRMC,181242.750,A,4308.3102,N,07726.2645,W,0.00,240.00,080921,,,A*78
$GPGGA,181243.000,4308.3102,N,07726.2645,W,1,06,1.53,161.4,M,-34.4,M,,*50
$GPRMC,181243.250,A,4308.3102,N,07726.2645,W,0.01,260.88,080921,,,A*7F
$GPGGA,181243.500,4308.3102,N,07726.2645,W,1,06,1.53,161.4,M,-34.4,M,,*55
$GPRMC,181243.750,A,4308.3102,N,07726.2645,W,0.00,45.68,080921,,,A*40
$GPGGA,181244.000,4308.3102,N,07726.2645,W,1,06,1.53,161.4,M,-34.4,M,,*57
$GPRMC,181244.250,A,4308.3102,N,07726.2645,W,0.01,151.12,080921,,,A*7A
$GPGGA,181244.500,4308.3102,N,07726.2645,W,1,06,1.53,161.4,M,-34.4,M,,*52
$GPRMC,181244.750,A,4308.3102,N,07726.2645,W,0.01,232.78,080921,,,A*75
$GPGGA,181245.000,4308.3102,N,07726.2645,W,1,06,1.53,161.4,M,-34.4,M,,*56
$GPRMC,181245.250,A,4308.3102,N,07726.2645,W,0.01,147.23,080921,,,A*7E
$GPGGA,181245.500,4308.3102,N,07726.2645,W,1,06,1.53,161.4,M,-34.4,M,,*53
$GPRMC,181245.750,A,4308.3102,N,07726.2645,W,0.01,350.16,080921,,,A*79
$GPGGA,181246.000,4308.3102,N,07726.2645,W,1,06,1.53,161.4,M,-34.4,M,,*55
$GPRMC,181246.250,A,4308.3102,N,07726.2645,W,0.00,351.74,080921,,,A*7B
$GPGGA,181246.500,4308.3102,N,07726.2645,W,1,06,1.53,161.4,M,-34.4,M,,*50
$GPRMC,181246.750,A,4308.3102,N,07726.2645,W,0.01,230.17,080921,,,A*7C
$GPGGA,181247.000,4308.3102,N,07726.2645,W,1,06,1.53,161.4,M,-34.4,M,,*54
$GPRMC,181247.250,A,4308.3102,N,07726.2645,W,0.00,45.27,080921,,,A*4A
$GPGGA,181247.500,4308.3102,N,07726.2645,W,1,06,1.53,161.4,M,-34.4,M,,*51
$GPRMC,181247.750,A,4308.3102,N,07726.2645,W,0.01,165.28,080921,,,A*72
$GPGGA,181248.000,4308.3102,N,07726.2645,W,1,06,1.53,161.4,M,-34.4,M,,*5B
$GPRMC,181248.250,A,4308.3102,N,07726.2645,W,0.00,74.38,080921,,,A*49
$GPGGA,181248.500,4308.3102,N,07726.2645,W,1,06,1.53,161.4,M,-34.4,M,,*5E
$GPRMC,181248.750,A,4308.3102,N,07726.2645,W,0.01,206.61,080921,,,A*76
$GPGGA,181249.000,4308.3102,N,07726.2645,W,1,06,1.53,161.4,M,-34.4,M,,*5A
$GPRMC,181249.250,A,4308.3102,N,07726.2645,W,0.00,148.85,080921,,,A*70
$GPGGA,181249.500,4308.3102,N,07726.2645,W,1,06,1.53,161.4,M,-34.4,M,,*5F
$GPRMC,181249.750,A,4308.3102,N,07726.2645,W,0.00,72.00,080921,,,A*40
$GPGGA,181250.000,4308.3102,N,07726.2645,W,1,06,1.53,161.4,M,-34.4,M,,*52
$GPRMC,181250.250,A,4308.3102,N,07726.2645,W,0.01,298.37,080921,,,A*7E
$GPGGA,181250.500,4308.3102,N,07726.2645,W,1,06,1.53,161.4,M,-34.4,M,,*57
$GPRMC,181250.750,A,4308.3102,N,07726.2645,W,0.00,62.46,080921,,,A*4B
$GPGGA,181251.000,4308.3102,N,07726.2645,W,1,06,1.53,161.4,M,-34.4,M,,*53
$GPRMC,181251.250,A,4308.3102,N,07726.2645,W,0.01,39.35,080921,,,A*44
$GPGGA,181251.500,4308.3102,N,07726.2645,W,1,06,1.53,161.4,M,-34.4,M,,*56
$GPRMC,181251.750,A,4308.3102,N,07726.2645,W,0.00,263.06,080921,,,A*7D
$GPGGA,181252.000,4308.3102,N,07726.2645,W,1,06,1.53,161.4,M,-34.4,M,,*50
$GPRMC,181252.250,A,4308.3102,N,07726.2645,W,0.01,337.92,080921,,,A*77
$GPGGA,181252.500,4308.3102,N,07726.2645,W,1,06,1.53,161.4,M,-34.4,M,,*55
$GPRMC,181252.750,A,4308.3102,N,07726.2645,W,0.00,180.44,080921,,,A*76
$GPGGA,181253.000,4308.3102,N,07726.2645,W,1,06,1.53,161.4,M,-34.4,M,,*51
$GPRMC,181253.250,A,4308.3102,N,07726.2645,W,0.01,297.29,080921,,,A*7D
$GPGGA,181253.500,4308.3102,N,07726.2645,W,1,06,1.53,161.4,M,-34.4,M,,*54
$GPRMC,181253.750,A,4308.3102,N,07726.2645,W,0.01,130.97,080921,,,A*73
$GPGGA,181254.000,4308.3102,N,07726.2645,W,1,06,1.53,161.4,M,-34.4,M,,*56
$GPRMC,181254.250,A,4308.3102,N,07726.2645,W,0.01,132.91,080921,,,A*75
$GPGGA,181254.500,4308.3102,N,07726.2645,W,1,06,1.53,161.4,M,-34.4,M,,*53
$GPRMC,181254.750,A,4308.3102,N,07726.2645,W,0.00,205.54,080921,,,A*7F
$GPGGA,181255.000,4308.3102,N,07726.2645,W,1,06,1.53,161.4,M,-34.4,M,,*57
$GPRMC,181255.250,A,4308.3102,N,07726.2645,W,0.01,165.14,080921,,,A*7B
$GPGGA,181255.500,4308.3102,N,07726.2645,W,1,06,1.53,161.4,M,-34.4,M,,*52
$GPRMC,181255.750,A,4308.3102,N,07726.2645,W,0.01,139.75,080921,,,A*70
$GPGGA,181256.000,4308.3102,N,07726.2645,W,1,06,1.53,161.4,M,-34.4,M,,*54
$GPRMC,181256.250,A,4308.3102,N,07726.2645,W,0.00,254.60,080921,,,A*7B
$GPGGA,181256.500,4308.3102,N,07726.2645,W,1,06,1.53,161.4,M,-34.4,M,,*51
$GPRMC,181256.750,A,4308.3102,N,07726.2645,W,0.00,227.34,080921,,,A*7B
$GPGGA,181257.000,4308.3102,N,07726.2645,W,1,06,1.53,161.4,M,-34.4,M,,*55
$GPRMC,181257.250,A,4308.3102,N,07726.2645,W,0.00,0.00,080921,,,A*7F
$GPGGA,181257.500,4308.3102,N,07726.2645,W,1,06,1.53,161.4,M,-34.4,M,,*50
$GPRMC,181257.750,A,4308.3102,N,07726.2645,W,0.04,24.58,080921,,,A*45
$GPGGA,181258.000,4308.3102,N,07726.2645,W,1,06,1.53,161.4,M,-34.4,M,,*5A
$GPRMC,181258.250,A,4308.3102,N,07726.2645,W,0.01,157.01,080921,,,A*73
$GPGGA,181258.500,4308.3102,N,07726.2645,W,1,06,1.53,161.4,M,-34.4,M,,*5F
$GPRMC,181258.750,A,4308.3102,N,07726.2645,W,0.01,6.53,080921,,,A*74
$GPGGA,181259.000,4308.3102,N,07726.2645,W,1,06,1.53,161.4,M,-34.4,M,,*5B
$GPRMC,181259.250,A,4308.3102,N,07726.2645,W,0.01,79.22,080921,,,A*4E
$GPGGA,181259.500,4308.3102,N,07726.2645,W,1,06,1.53,161.4,M,-34.4,M,,*5E
$GPRMC,181259.750,A,4308.3102,N,07726.2645,W,0.00,50.77,080921,,,A*41
$GPGGA,181300.000,4308.3102,N,07726.2645,W,1,06,1.53,161.4,M,-34.4,M,,*56
$GPRMC,181300.250,A,4308.3102,N,07726.2645,W,0.01,270.26,080921,,,A*7C
$GPGGA,181300.500,4308.3102,N,07726.2645,W,1,06,1.53,161.4,M,-34.4,M,,*53
$GPRMC,181300.750,A,4308.3102,N,07726.2645,W,0.01,13.00,080921,,,A*4A
$GPGGA,181301.000,4308.3102,N,07726.2645,W,1,06,1.53,161.4,M,-34.4,M,,*57
$GPRMC,181301.250,A,4308.3102,N,07726.2645,W,0.00,223.98,080921,,,A*7F
$GPGGA,181301.500,4308.3102,N,07726.2645,W,1,06,1.53,161.4,M,-34.4,M,,*52
$GPRMC,181301.750,A,4308.3102,N,07726.2645,W,0.00,248.85,080921,,,A*7B
$GPGGA,181302.000,4308.3102,N,07726.2645,W,1,06,1.53,161.4,M,-34.4,M,,*54
$GPRMC,181302.250,A,4308.3102,N,07726.2645,W,0.00,225.71,080921,,,A*7D
$GPGGA,181302.500,4308.3102,N,07726.2645,W,1,06,1.53,161.4,M,-34.4,M,,*51
$GPRMC,181302.750,A,4308.3102,N,07726.2645,W,0.00,108.16,080921,,,A*75
$GPGGA,181303.000,4308.3102,N,07726.2645,W,1,06,1.53,161.4,M,-34.4,M,,*55
$GPRMC,181303.250,A,4308.3102,N,07726.2645,W,0.01,214.41,080921,,,A*7C
$GPGGA,181303.500,4308.3102,N,07726.2645,W,1,06,1.53,161.4,M,-34.4,M,,*50
$GPRMC,181303.750,A,4308.3102,N,07726.2645,W,0.00,187.75,080921,,,A*76
$GPGGA,181304.000,4308.3102,N,07726.2645,W,1,06,1.53,161.4,M,-34.4,M,,*52
$GPRMC,181304.250,A,4308.3102,N,07726.2645,W,0.00,240.90,080921,,,A*77
$GPGGA,181304.500,4308.3102,N,07726.2645,W,1,06,1.53,161.4,M,-34.4,M,,*57
$GPRMC,181304.750,A,4308.3102,N,07726.2645,W,0.01,231.17,080921,,,A*7A
$GPGGA,181305.000,4308.3102,N,07726.2645,W,1,06,1.53,161.4,M,-34.4,M,,*53
$GPRMC,181305.250,A,4308.3102,N,07726.2645,W,0.01,48.77,080921,,,A*44
$GPGGA,181305.500,4308.3102,N,07726.2645,W,1,06,1.53,161.4,M,-34.4,M,,*56
$GPRMC,181305.750,A,4308.3102,N,07726.2645,W,0.01,278.65,080921,,,A*73
$GPGGA,181306.000,4308.3102,N,07726.2645,W,1,06,1.53,161.4,M,-34.4,M,,*50
$GPRMC,181306.250,A,4308.3102,N,07726.2645,W,0.00,251.10,080921,,,A*7D
$GPGGA,181306.500,4308.3102,N,07726.2645,W,1,06,1.53,161.4,M,-34.4,M,,*55
$GPRMC,181306.750,A,4308.3102,N,07726.2645,W,0.00,0.00,080921,,,A*7F
$GPGGA,181307.000,4308.3102,N,07726.2645,W,1,06,1.53,161.4,M,-34.4,M,,*51
$GPRMC,181307.250,A,4308.3102,N,07726.2645,W,0.00,0.00,080921,,,A*7B
$GPGGA,181307.500,4308.3102,N,07726.2645,W,1,06,1.53,161.4,M,-34.4,M,,*54
$GPRMC,181307.750,A,4308.3102,N,07726.2645,W,0.00,291.39,080921,,,A*7E
$GPGGA,181308.000,4308.3102,N,07726.2645,W,1,06,1.53,161.4,M,-34.4,M,,*5E
$GPRMC,181308.250,A,4308.3102,N,07726.2645,W,0.00,0.00,080921,,,A*74
$GPGGA,181308.500,4308.3102,N,07726.2645,W,1,06,1.53,161.4,M,-34.4,M,,*5B
$GPRMC,181308.750,A,4308.3102,N,07726.2645,W,0.00,289.25,080921,,,A*75
$GPGGA,181309.000,4308.3102,N,07726.2645,W,1,06,1.53,161.4,M,-34.4,M,,*5F
$GPRMC,181309.250,A,4308.3102,N,07726.2645,W,0.00,0.00,080921,,,A*75
$GPGGA,181309.500,4308.3102,N,07726.2645,W,1,06,1.53,161.4,M,-34.4,M,,*5A
$GPRMC,181309.750,A,4308.3102,N,07726.2645,W,0.00,161.32,080921,,,A*77
$GPGGA,181310.000,4308.3102,N,07726.2645,W,1,06,1.53,161.4,M,-34.4,M,,*57
$GPRMC,181310.250,A,4308.3102,N,07726.2645,W,0.00,97.47,080921,,,A*40
$GPGGA,181310.500,4308.3102,N,07726.2645,W,1,06,1.53,161.4,M,-34.4,M,,*52
$GPRMC,181310.750,A,4308.3102,N,07726.2645,W,0.01,94.18,080921,,,A*4D
$GPGGA,181311.000,4308.3102,N,07726.2645,W,1,06,1.53,161.4,M,-34.4,M,,*56
$GPRMC,181311.250,A,4308.3102,N,07726.2645,W,0.00,245.05,080921,,,A*7A
$GPGGA,181311.500,4308.3102,N,07726.2645,W,1,06,1.53,161.4,M,-34.4,M,,*53
$GPRMC,181311.750,A,4308.3102,N,07726.2645,W,0.00,107.59,080921,,,A*73
$GPGGA,181312.000,4308.3102,N,07726.2645,W,1,06,1.53,161.4,M,-34.4,M,,*55
$GPRMC,181312.250,A,4308.3102,N,07726.2645,W,0.00,63.59,080921,,,A*46
$GPGGA,181312.500,4308.3102,N,07726.2645,W,1,06,1.53,161.4,M,-34.4,M,,*50
$GPRMC,181312.750,A,4308.3102,N,07726.2645,W,0.00,283.09,080921,,,A*7A
$GPGGA,181313.000,4308.3102,N,07726.2645,W,1,06,1.53,161.4,M,-34.4,M,,*54
$GPRMC,181313.250,A,4308.3102,N,07726.2645,W,0.00,260.96,080921,,,A*75
$GPGGA,181313.500,4308.3102,N,07726.2645,W,1,06,1.53,161.4,M,-34.4,M,,*51
$GPRMC,181313.750,A,4308.3102,N,07726.2645,W,0.00,289.72,080921,,,A*7D
$GPGGA,181314.000,4308.3102,N,07726.2645,W,1,06,1.53,161.4,M,-34.4,M,,*53
$GPRMC,181314.250,A,4308.3102,N,07726.2645,W,0.01,276.40,080921,,,A*7F
$GPGGA,181314.500,4308.3102,N,07726.2645,W,1,06,1.53,161.4,M,-34.4,M,,*56
$GPRMC,181314.750,A,4308.3102,N,07726.2645,W,0.01,268.88,080921,,,A*71
$GPGGA,181315.000,4308.3102,N,07726.2645,W,1,06,1.53,161.4,M,-34.4,M,,*52
$GPRMC,181315.250,A,4308.3102,N,07726.2645,W,0.00,280.62,080921,,,A*76
$GPGGA,181315.500,4308.3102,N,07726.2645,W,1,06,1.53,161.4,M,-34.4,M,,*57
$GPRMC,181315.750,A,4308.3102,N,07726.2645,W,0.00,232.30,080921,,,A*7D
$GPGGA,181316.000,4308.3102,N,07726.2645,W,1,06,1.53,161.4,M,-34.4,M,,*51
$GPRMC,181316.250,A,4308.3102,N,07726.2645,W,0.00,218.25,080921,,,A*77
$GPGGA,181316.500,4308.3102,N,07726.2645,W,1,06,1.53,161.4,M,-34.4,M,,*54
$GPRMC,181316.750,A,4308.3102,N,07726.2645,W,0.01,235.72,080921,,,A*7E
$GPGGA,181317.000,4308.3102,N,07726.2645,W,1,06,1.53,161.4,M,-34.4,M,,*50
$GPRMC,181317.250,A,4308.3102,N,07726.2645,W,0.01,170.32,080921,,,A*7C
$GPGGA,181317.500,4308.3102,N,07726.2645,W,1,06,1.53,161.4,M,-34.4,M,,*55
$GPRMC,181317.750,A,4308.3102,N,07726.2645,W,0.00,0.00,080921,,,A*7F
$GPGGA,181318.000,4308.3102,N,07726.2645,W,1,06,1.53,161.4,M,-34.4,M,,*5F
$GPRMC,181318.250,A,4308.3102,N,07726.2645,W,0.00,296.62,080921,,,A*7C
$GPGGA,181318.500,4308.3102,N,07726.2645,W,1,06,1.53,161.4,M,-34.4,M,,*5A
$GPRMC,181318.750,A,4308.3102,N,07726.2645,W,0.01,118.30,080921,,,A*7A
$GPGGA,181319.000,4308.3102,N,07726.2645,W,1,06,1.53,161.4,M,-34.4,M,,*5E
$GPRMC,181319.250,A,4308.3102,N,07726.2645,W,0.00,260.01,080921,,,A*71
$GPGGA,181319.500,4308.3102,N,07726.2645,W,1,06,1.53,161.4,M,-34.4,M,,*5B
$GPRMC,181319.750,A,4308.3102,N,07726.2645,W,0.01,116.21,080921,,,A*75
$GPGGA,181320.000,4308.3102,N,07726.2645,W,1,06,1.53,161.4,M,-34.4,M,,*54
$GPRMC,181320.250,A,4308.3102,N,07726.2645,W,0.01,124.58,080921,,,A*75
$GPGGA,181320.500,4308.3102,N,07726.2645,W,1,06,1.53,161.4,M,-34.4,M,,*51
$GPRMC,181320.750,A,4308.3102,N,07726.2645,W,0.00,274.45,080921,,,A*7B
$GPGGA,181321.000,4308.3102,N,07726.2645,W,1,06,1.53,161.4,M,-34.4,M,,*55
$GPRMC,181321.250,A,4308.3102,N,07726.2645,W,0.01,160.09,080921,,,A*70
$GPGGA,181321.500,4308.3102,N,07726.2645,W,1,06,1.53,161.4,M,-34.4,M,,*50
$GPRMC,181321.750,A,4308.3102,N,07726.2645,W,0.00,62.16,080921,,,A*49
$GPGGA,181322.000,4308.3102,N,07726.2645,W,1,06,1.53,161.4,M,-34.4,M,,*56
$GPRMC,181322.250,A,4308.3102,N,07726.2645,W,0.00,304.43,080921,,,A*7C
$GPGGA,181322.500,4308.3102,N,07726.2645,W,1,06,1.53,161.4,M,-34.4,M,,*53
$GPRMC,181322.750,A,4308.3102,N,07726.2645,W,0.01,136.77,080921,,,A*7C
$GPGGA,181323.000,4308.3102,N,07726.2645,W,1,06,1.53,161.4,M,-34.4,M,,*57
$GPRMC,181323.250,A,4308.3102,N,07726.2645,W,0.01,2.52,080921,,,A*79
$GPGGA,181323.500,4308.3102,N,07726.2645,W,1,06,1.53,161.4,M,-34.4,M,,*52
$GPRMC,181323.750,A,4308.3102,N,07726.2645,W,0.02,24.69,080921,,,A*43
$GPGGA,181324.000,4308.3102,N,07726.2645,W,1,06,1.53,161.4,M,-34.4,M,,*50
$GPRMC,181324.250,A,4308.3102,N,07726.2645,W,0.03,9.69,080921,,,A*7F
$GPGGA,181324.500,4308.3102,N,07726.2645,W,1,06,1.53,161.4,M,-34.4,M,,*55
$GPRMC,181324.750,A,4308.3102,N,07726.2645,W,0.06,26.86,080921,,,A*43
$GPGGA,181325.000,4308.3102,N,07726.2645,W,1,06,1.53,161.4,M,-34.4,M,,*51
$GPRMC,181325.250,A,4308.3102,N,07726.2645,W,0.01,59.02,080921,,,A*44
$GPGGA,181325.500,4308.3102,N,07726.2645,W,1,06,1.53,161.4,M,-34.4,M,,*54
$GPRMC,181325.750,A,4308.3102,N,07726.2645,W,0.01,48.06,080921,,,A*45
$GPGGA,181326.000,4308.3102,N,07726.2645,W,1,06,1.53,161.4,M,-34.4,M,,*52
$GPRMC,181326.250,A,4308.3102,N,07726.2645,W,0.02,6.74,080921,,,A*7F
$GPGGA,181326.500,4308.3102,N,07726.2645,W,1,06,1.53,161.4,M,-34.4,M,,*57
$GPRMC,181326.750,A,4308.3102,N,07726.2645,W,0.01,346.95,080921,,,A*71
$GPGGA,181327.000,4308.3102,N,07726.2645,W,1,06,1.53,161.4,M,-34.4,M,,*53
$GPRMC,181327.250,A,4308.3102,N,07726.2645,W,0.01,264.53,080921,,,A*7E
$GPGGA,181327.500,4308.3102,N,07726.2645,W,1,06,1.53,161.4,M,-34.4,M,,*56
$GPRMC,181327.750,A,4308.3102,N,07726.2645,W,0.01,186.11,080921,,,A*72
$GPGGA,181328.000,4308.3102,N,07726.2645,W,1,06,1.53,161.3,M,-34.4,M,,*5B
$GPRMC,181328.250,A,4308.3102,N,07726.2645,W,0.01,45.01,080921,,,A*47
$GPGGA,181328.500,4308.3102,N,07726.2645,W,1,06,1.54,161.3,M,-34.4,M,,*59
$GPRMC,181328.750,A,4308.3102,N,07726.2645,W,0.05,21.89,080921,,,A*44
$GPGGA,181329.000,4308.3102,N,07726.2645,W,1,06,1.53,161.3,M,-34.4,M,,*5A
$GPRMC,181329.250,A,4308.3102,N,07726.2645,W,0.03,6.23,080921,,,A*73
$GPGGA,181329.500,4308.3102,N,07726.2645,W,1,06,1.53,161.3,M,-34.4,M,,*5F
$GPRMC,181329.750,A,4308.3102,N,07726.2645,W,0.05,16.97,080921,,,A*4E
$GPGGA,181330.000,4308.3102,N,07726.2645,W,1,06,1.53,161.3,M,-34.4,M,,*52
$GPRMC,181330.250,A,4308.3102,N,07726.2645,W,0.04,15.93,080921,,,A*45
$GPGGA,181330.500,4308.3102,N,07726.2645,W,1,06,1.44,161.3,M,-34.4,M,,*51
$GPRMC,181330.750,A,4308.3102,N,07726.2645,W,0.20,21.32,080921,,,A*4A
$GPGGA,181331.000,4308.3103,N,07726.2645,W,1,06,1.44,161.3,M,-34.4,M,,*54
$GPRMC,181331.250,A,4308.3103,N,07726.2645,W,0.23,28.84,080921,,,A*48
$GPGGA,181331.500,4308.3103,N,07726.2645,W,1,06,1.44,161.3,M,-34.4,M,,*51
$GPRMC,181331.750,A,4308.3103,N,07726.2645,W,0.33,34.04,080921,,,A*49
$GPGGA,181332.000,4308.3103,N,07726.2644,W,1,06,1.44,161.3,M,-34.4,M,,*56
$GPRMC,181332.250,A,4308.3103,N,07726.2644,W,0.39,34.92,080921,,,A*4B
$GPGGA,181332.500,4308.3104,N,07726.2644,W,1,06,1.44,161.3,M,-34.4,M,,*54
$GPRMC,181332.750,A,4308.3104,N,07726.2644,W,0.41,27.19,080921,,,A*47
$GPGGA,181333.000,4308.3104,N,07726.2644,W,1,06,1.44,161.3,M,-34.4,M,,*50
$GPRMC,181333.250,A,4308.3104,N,07726.2643,W,0.58,33.12,080921,,,A*42
$GPGGA,181333.500,4308.3106,N,07726.2642,W,1,06,1.44,161.3,M,-34.4,M,,*51
$GPRMC,181333.750,A,4308.3106,N,07726.2642,W,0.78,31.94,080921,,,A*4A
$GPGGA,181334.000,4308.3107,N,07726.2641,W,1,06,1.44,161.2,M,-34.4,M,,*50
$GPRMC,181334.250,A,4308.3108,N,07726.2641,W,0.82,28.17,080921,,,A*43
$GPGGA,181334.500,4308.3109,N,07726.2640,W,1,06,1.44,161.2,M,-34.4,M,,*5A
$GPRMC,181334.750,A,4308.3110,N,07726.2639,W,0.96,30.70,080921,,,A*4D
$GPGGA,181335.000,4308.3111,N,07726.2638,W,1,06,1.44,161.2,M,-34.4,M,,*58
$GPRMC,181335.250,A,4308.3113,N,07726.2637,W,1.21,29.38,080921,,,A*4D
$GPGGA,181335.500,4308.3115,N,07726.2635,W,1,06,1.44,161.2,M,-34.4,M,,*54
$GPRMC,181335.750,A,4308.3116,N,07726.2632,W,1.58,38.73,080921,,,A*49
$GPGGA,181336.000,4308.3120,N,07726.2630,W,1,06,1.44,161.2,M,-34.4,M,,*51
$GPRMC,181336.250,A,4308.3123,N,07726.2627,W,2.50,37.91,080921,,,A*45
$GPGGA,181336.500,4308.3124,N,07726.2624,W,1,06,1.44,161.2,M,-34.4,M,,*55
$GPRMC,181336.750,A,4308.3126,N,07726.2622,W,2.69,44.46,080921,,,A*44
$GPGGA,181337.000,4308.3127,N,07726.2620,W,1,06,1.44,161.2,M,-34.4,M,,*56
$GPRMC,181337.250,A,4308.3128,N,07726.2617,W,3.06,55.05,080921,,,A*47
$GPGGA,181337.500,4308.3129,N,07726.2615,W,1,06,1.44,161.2,M,-34.4,M,,*5B
$GPRMC,181337.750,A,4308.3130,N,07726.2612,W,2.74,57.76,080921,,,A*4C
$GPGGA,181338.000,4308.3131,N,07726.2610,W,1,06,1.44,161.2,M,-34.4,M,,*5D
$GPRMC,181338.250,A,4308.3131,N,07726.2608,W,2.07,69.30,080921,,,A*47
$GPGGA,181338.500,4308.3131,N,07726.2607,W,1,06,1.44,161.2,M,-34.4,M,,*5E
$GPRMC,181338.750,A,4308.3132,N,07726.2606,W,0.95,69.10,080921,,,A*44
$GPGGA,181339.000,4308.3132,N,07726.2605,W,1,06,1.44,161.2,M,-34.4,M,,*5B
$GPRMC,181339.250,A,4308.3132,N,07726.2605,W,0.34,56.75,080921,,,A*47
$GPGGA,181339.500,4308.3133,N,07726.2606,W,1,06,1.44,161.2,M,-34.4,M,,*5C
$GPRMC,181339.750,A,4308.3133,N,07726.2607,W,0.42,306.87,080921,,,A*7B
$GPGGA,181340.000,4308.3134,N,07726.2608,W,1,06,1.44,161.2,M,-34.4,M,,*5E
$GPRMC,181340.250,A,4308.3135,N,07726.2609,W,0.75,294.46,080921,,,A*7B
$GPGGA,181340.500,4308.3135,N,07726.2611,W,1,06,1.44,161.2,M,-34.4,M,,*52
$GPRMC,181340.750,A,4308.3136,N,07726.2613,W,1.33,283.24,080921,,,A*77
$GPGGA,181341.000,4308.3136,N,07726.2617,W,1,06,1.44,161.2,M,-34.4,M,,*53
$GPRMC,181341.250,A,4308.3137,N,07726.2619,W,1.82,278.56,080921,,,A*73
$GPGGA,181341.500,4308.3137,N,07726.2622,W,1,06,1.44,161.2,M,-34.4,M,,*51
$GPRMC,181341.750,A,4308.3138,N,07726.2625,W,2.85,277.15,080921,,,A*7A
$GPGGA,181342.000,4308.3139,N,07726.2628,W,1,06,1.44,161.1,M,-34.4,M,,*50
$GPRMC,181342.250,A,4308.3140,N,07726.2632,W,4.10,277.11,080921,,,A*7B
$GPGGA,181342.500,4308.3140,N,07726.2636,W,1,06,1.53,161.1,M,-34.4,M,,*52
$GPRMC,181342.750,A,4308.3141,N,07726.2641,W,4.76,276.55,080921,,,A*7A
$GPGGA,181343.000,4308.3142,N,07726.2645,W,1,06,1.53,161.1,M,-34.4,M,,*50
$GPRMC,181343.250,A,4308.3144,N,07726.2650,W,5.11,279.18,080921,,,A*7D
$GPGGA,181343.500,4308.3146,N,07726.2655,W,1,06,1.54,161.1,M,-34.4,M,,*57
$GPRMC,181343.750,A,4308.3147,N,07726.2660,W,5.71,279.41,080921,,,A*72
$GPGGA,181344.000,4308.3148,N,07726.2666,W,1,06,1.53,161.1,M,-34.4,M,,*5C
$GPRMC,181344.250,A,4308.3149,N,07726.2672,W,6.11,280.36,080921,,,A*7E
$GPGGA,181344.500,4308.3151,N,07726.2678,W,1,06,1.53,161.1,M,-34.4,M,,*5E
$GPRMC,181344.750,A,4308.3152,N,07726.2684,W,6.78,279.82,080921,,,A*7E
$GPGGA,181345.000,4308.3153,N,07726.2691,W,1,06,1.54,161.1,M,-34.4,M,,*58
$GPRMC,181345.250,A,4308.3155,N,07726.2698,W,7.18,278.70,080921,,,A*7B
$GPGGA,181345.500,4308.3156,N,07726.2705,W,1,06,1.53,161.1,M,-34.4,M,,*53
$GPRMC,181345.750,A,4308.3157,N,07726.2712,W,7.38,281.37,080921,,,A*78
$GPGGA,181346.000,4308.3159,N,07726.2719,W,1,06,1.53,161.1,M,-34.4,M,,*57
$GPRMC,181346.250,A,4308.3161,N,07726.2727,W,8.05,282.76,080921,,,A*7A
$GPGGA,181346.500,4308.3162,N,07726.2735,W,1,06,1.54,161.2,M,-34.4,M,,*50
$GPRMC,181346.750,A,4308.3163,N,07726.2743,W,8.70,282.02,080921,,,A*7E
$GPGGA,181347.000,4308.3165,N,07726.2751,W,1,06,1.53,161.2,M,-34.4,M,,*56
$GPRMC,181347.250,A,4308.3166,N,07726.2760,W,9.26,280.61,080921,,,A*7B
$GPGGA,181347.500,4308.3167,N,07726.2769,W,1,06,1.54,161.2,M,-34.4,M,,*5D
$GPRMC,181347.750,A,4308.3170,N,07726.2778,W,9.72,282.51,080921,,,A*70
$GPGGA,181348.000,4308.3174,N,07726.2788,W,1,06,1.53,161.2,M,-34.4,M,,*5D
$GPRMC,181348.250,A,4308.3177,N,07726.2797,W,10.21,287.00,080921,,,A*43
$GPGGA,181348.500,4308.3180,N,07726.2806,W,1,06,1.53,161.1,M,-34.4,M,,*59
$GPRMC,181348.750,A,4308.3183,N,07726.2816,W,10.58,288.90,080921,,,A*43
$GPGGA,181349.000,4308.3186,N,07726.2826,W,1,06,1.54,161.2,M,-34.4,M,,*5D
$GPRMC,181349.250,A,4308.3189,N,07726.2837,W,11.23,290.53,080921,,,A*45
$GPGGA,181349.500,4308.3193,N,07726.2848,W,1,06,1.53,161.2,M,-34.4,M,,*53
$GPRMC,181349.750,A,4308.3197,N,07726.2859,W,12.29,293.11,080921,,,A*4B
$GPGGA,181350.000,4308.3201,N,07726.2870,W,1,06,1.53,161.3,M,-34.4,M,,*5C
$GPRMC,181350.250,A,4308.3205,N,07726.2881,W,12.99,294.93,080921,,,A*4D
$GPGGA,181350.500,4308.3209,N,07726.2893,W,1,06,1.54,161.3,M,-34.4,M,,*5B
$GPRMC,181350.750,A,4308.3213,N,07726.2905,W,13.84,296.05,080921,,,A*42
$GPGGA,181351.000,4308.3218,N,07726.2917,W,1,06,1.53,161.4,M,-34.4,M,,*52
$GPRMC,181351.250,A,4308.3223,N,07726.2929,W,14.45,296.53,080921,,,A*42
$GPGGA,181351.500,4308.3228,N,07726.2942,W,1,06,1.54,161.4,M,-34.4,M,,*53
$GPRMC,181351.750,A,4308.3233,N,07726.2955,W,15.09,297.54,080921,,,A*42
$GPGGA,181352.000,4308.3238,N,07726.2967,W,1,06,1.54,161.4,M,-34.4,M,,*53
$GPRMC,181352.250,A,4308.3243,N,07726.2979,W,15.10,298.04,080921,,,A*4F
$GPGGA,181352.500,4308.3248,N,07726.2991,W,1,06,1.54,161.4,M,-34.4,M,,*58
$GPRMC,181352.750,A,4308.3253,N,07726.3003,W,15.05,298.79,080921,,,A*40
$GPGGA,181353.000,4308.3259,N,07726.3015,W,1,06,1.54,161.5,M,-34.4,M,,*59
$GPRMC,181353.250,A,4308.3264,N,07726.3028,W,15.06,299.68,080921,,,A*4B
$GPGGA,181353.500,4308.3270,N,07726.3041,W,1,06,1.54,161.5,M,-34.4,M,,*56
$GPRMC,181353.750,A,4308.3276,N,07726.3054,W,15.33,299.88,080921,,,A*4E
$GPGGA,181354.000,4308.3281,N,07726.3066,W,1,06,1.54,161.6,M,-34.4,M,,*5C
$GPRMC,181354.250,A,4308.3287,N,07726.3079,W,15.43,300.66,080921,,,A*4B
$GPGGA,181354.500,4308.3292,N,07726.3093,W,1,06,1.54,161.7,M,-34.4,M,,*50
$GPRMC,181354.750,A,4308.3298,N,07726.3107,W,16.06,301.10,080921,,,A*4A
$GPGGA,181355.000,4308.3304,N,07726.3121,W,1,06,1.54,161.7,M,-34.4,M,,*52
$GPRMC,181355.250,A,4308.3311,N,07726.3135,W,16.43,301.33,080921,,,A*4F
$GPGGA,181355.500,4308.3317,N,07726.3149,W,1,06,1.54,161.7,M,-34.4,M,,*5B
$GPRMC,181355.750,A,4308.3324,N,07726.3164,W,16.95,301.21,080921,,,A*40
$GPGGA,181356.000,4308.3331,N,07726.3179,W,1,06,1.53,161.7,M,-34.4,M,,*5D
$GPRMC,181356.250,A,4308.3337,N,07726.3193,W,17.23,301.45,080921,,,A*42
$GPGGA,181356.500,4308.3343,N,07726.3207,W,1,06,1.54,161.7,M,-34.4,M,,*50
$GPRMC,181356.750,A,4308.3350,N,07726.3222,W,17.56,301.29,080921,,,A*47
$GPGGA,181357.000,4308.3356,N,07726.3237,W,1,06,1.53,161.7,M,-34.4,M,,*54
$GPRMC,181357.250,A,4308.3362,N,07726.3252,W,17.74,301.54,080921,,,A*4F
$GPGGA,181357.500,4308.3369,N,07726.3267,W,2,06,1.54,161.7,M,-34.4,M,0000,0000*5C
$GPRMC,181357.750,A,4308.3376,N,07726.3282,W,17.95,301.28,080921,,,D*43
$GPGGA,181358.000,4308.3383,N,07726.3298,W,2,06,1.54,161.7,M,-34.4,M,0000,0000*52
$GPRMC,181358.250,A,4308.3390,N,07726.3312,W,18.18,301.64,080921,,,D*4B
$GPGGA,181358.500,4308.3397,N,07726.3328,W,2,06,1.54,161.6,M,-34.4,M,0000,0000*59
$GPRMC,181358.750,A,4308.3404,N,07726.3343,W,18.33,302.05,080921,,,D*4D
$GPGGA,181359.000,4308.3412,N,07726.3358,W,2,06,1.53,161.5,M,-34.4,M,0000,0000*54
$GPRMC,181359.250,A,4308.3419,N,07726.3373,W,18.54,303.03,080921,,,D*40
$GPGGA,181359.500,4308.3427,N,07726.3387,W,2,06,1.54,161.5,M,-34.4,M,0000,0000*52
$GPRMC,181359.750,A,4308.3435,N,07726.3401,W,18.56,305.10,080921,,,D*4F
$GPGGA,181400.000,4308.3443,N,07726.3415,W,2,06,1.54,161.4,M,-34.4,M,0000,0000*53
$GPRMC,181400.250,A,4308.3450,N,07726.3429,W,18.51,306.50,080921,,,D*48
$GPGGA,181400.500,4308.3458,N,07726.3442,W,2,06,1.54,161.4,M,-34.4,M,0000,0000*5E
$GPRMC,181400.750,A,4308.3465,N,07726.3455,W,18.20,307.05,080921,,,D*47
$GPGGA,181401.000,4308.3473,N,07726.3469,W,2,06,1.54,161.4,M,-34.4,M,0000,0000*5A
$GPRMC,181401.250,A,4308.3480,N,07726.3482,W,18.11,306.99,080921,,,D*44
$GPGGA,181401.500,4308.3488,N,07726.3495,W,2,06,1.53,161.4,M,-34.4,M,0000,0000*5F
$GPRMC,181401.750,A,4308.3495,N,07726.3509,W,17.98,307.07,080921,,,D*4F
$GPGGA,181402.000,4308.3503,N,07726.3522,W,2,06,1.54,161.4,M,-34.4,M,0000,0000*51
$GPRMC,181402.250,A,4308.3510,N,07726.3536,W,17.92,307.38,080921,,,D*4F
$GPGGA,181402.500,4308.3518,N,07726.3549,W,2,06,1.54,161.3,M,-34.4,M,0000,0000*54
$GPRMC,181402.750,A,4308.3525,N,07726.3563,W,17.87,307.55,080921,,,D*43
$GPGGA,181403.000,4308.3532,N,07726.3574,W,2,06,1.53,161.2,M,-34.4,M,0000,0000*50
$GPRMC,181403.250,A,4308.3539,N,07726.3585,W,17.31,308.75,080921,,,D*42
$GPGGA,181403.500,4308.3547,N,07726.3597,W,2,06,1.54,161.2,M,-34.4,M,0000,0000*5D
$GPRMC,181403.750,A,4308.3554,N,07726.3609,W,17.08,309.62,080921,,,D*46
$GPGGA,181404.000,4308.3562,N,07726.3622,W,2,06,1.54,161.2,M,-34.4,M,0000,0000*55
$GPRMC,181404.250,A,4308.3570,N,07726.3634,W,16.80,310.55,080921,,,D*41
$GPGGA,181404.500,4308.3579,N,07726.3646,W,2,06,1.54,161.3,M,-34.4,M,0000,0000*59
$GPRMC,181404.750,A,4308.3589,N,07726.3657,W,16.55,315.06,080921,,,D*4C
$GPGGA,181405.000,4308.3600,N,07726.3667,W,2,06,1.54,161.3,M,-34.4,M,0000,0000*53
$GPRMC,181405.250,A,4308.3611,N,07726.3677,W,16.88,321.29,080921,,,D*42
$GPGGA,181405.500,4308.3623,N,07726.3687,W,2,06,1.54,161.5,M,-34.4,M,0000,0000*5F
$GPRMC,181405.750,A,4308.3635,N,07726.3696,W,17.51,326.21,080921,,,D*44
$GPGGA,181406.000,4308.3646,N,07726.3704,W,2,06,1.54,161.7,M,-34.4,M,0000,0000*52
$GPRMC,181406.250,A,4308.3657,N,07726.3713,W,17.63,329.60,080921,,,D*41
$GPGGA,181406.500,4308.3668,N,07726.3720,W,2,06,1.54,161.7,M,-34.4,M,0000,0000*5D
$GPRMC,181406.750,A,4308.3681,N,07726.3727,W,17.92,334.17,080921,,,D*4A
$GPGGA,181407.000,4308.3694,N,07726.3735,W,2,06,1.54,161.7,M,-34.4,M,0000,0000*5E
$GPRMC,181407.250,A,4308.3705,N,07726.3741,W,18.21,335.18,080921,,,D*4A
$GPGGA,181407.500,4308.3717,N,07726.3747,W,2,06,1.54,161.6,M,-34.4,M,0000,0000*55
$GPRMC,181407.750,A,4308.3729,N,07726.3753,W,18.25,338.42,080921,,,D*44
$GPGGA,181408.000,4308.3742,N,07726.3759,W,2,06,1.53,161.4,M,-34.4,M,0000,0000*55
$GPRMC,181408.250,A,4308.3754,N,07726.3764,W,18.52,340.70,080921,,,D*4E
$GPGGA,181408.500,4308.3768,N,07726.3769,W,2,06,1.54,161.4,M,-34.4,M,0000,0000*5C
$GPRMC,181408.750,A,4308.3780,N,07726.3773,W,18.77,343.78,080921,,,D*48
$GPGGA,181409.000,4308.3793,N,07726.3777,W,2,06,1.54,161.4,M,-34.4,M,0000,0000*53
$GPRMC,181409.250,A,4308.3805,N,07726.3780,W,18.55,347.27,080921,,,D*4C
$GPGGA,181409.500,4308.3820,N,07726.3782,W,2,06,1.54,161.5,M,-34.4,M,0000,0000*5A
$GPRMC,181409.750,A,4308.3834,N,07726.3786,W,19.38,349.74,080921,,,D*4F
$GPGGA,181410.000,4308.3848,N,07726.3789,W,2,06,1.54,161.6,M,-34.4,M,0000,0000*51
$GPRMC,181410.250,A,4308.3860,N,07726.3789,W,19.15,351.78,080921,,,D*46
$GPGGA,181410.500,4308.3871,N,07726.3788,W,2,06,1.54,161.5,M,-34.4,M,0000,0000*5C
$GPRMC,181410.750,A,4308.3883,N,07726.3788,W,18.42,355.66,080921,,,D*47
$GPGGA,181411.000,4308.3894,N,07726.3787,W,2,06,1.54,161.5,M,-34.4,M,0000,0000*5C
$GPRMC,181411.250,A,4308.3906,N,07726.3786,W,18.01,358.01,080921,,,D*4A
$GPGGA,181411.500,4308.3918,N,07726.3785,W,2,06,1.54,161.5,M,-34.4,M,0000,0000*5E
$GPRMC,181411.750,A,4308.3930,N,07726.3783,W,17.71,1.28,080921,,,D*43
$GPGGA,181412.000,4308.3942,N,07726.3781,W,2,06,1.54,161.6,M,-34.4,M,0000,0000*50
$GPRMC,181412.250,A,4308.3954,N,07726.3779,W,17.68,3.57,080921,,,D*40
$GPGGA,181412.500,4308.3966,N,07726.3776,W,2,06,1.54,161.6,M,-34.4,M,0000,0000*5B
$GPRMC,181412.750,A,4308.3978,N,07726.3774,W,17.68,5.16,080921,,,D*45
$GPGGA,181413.000,4308.3990,N,07726.3771,W,2,06,1.54,161.7,M,-34.4,M,0000,0000*50
$GPRMC,181413.250,A,4308.4002,N,07726.3768,W,17.73,6.39,080921,,,D*4B
$GPGGA,181413.500,4308.4014,N,07726.3765,W,2,06,1.54,161.7,M,-34.4,M,0000,0000*52
$GPRMC,181413.750,A,4308.4026,N,07726.3762,W,17.84,7.52,080921,,,D*46
$GPGGA,181414.000,4308.4039,N,07726.3758,W,2,06,1.54,161.9,M,-34.4,M,0000,0000*5F
$GPRMC,181414.250,A,4308.4053,N,07726.3754,W,18.32,8.97,080921,,,D*47
$GPGGA,181414.500,4308.4065,N,07726.3750,W,2,06,1.54,162.0,M,-34.4,M,0000,0000*51
$GPRMC,181414.750,A,4308.4079,N,07726.3746,W,18.58,9.79,080921,,,D*44
$GPGGA,181415.000,4308.4092,N,07726.3742,W,2,06,1.54,162.3,M,-34.4,M,0000,0000*5D
$GPRMC,181415.250,A,4308.4105,N,07726.3739,W,18.68,9.40,080921,,,D*4B
$GPGGA,181415.500,4308.4118,N,07726.3735,W,2,06,1.54,162.5,M,-34.4,M,0000,0000*5D
$GPRMC,181415.750,A,4308.4130,N,07726.3732,W,18.69,9.57,080921,,,D*44
$GPGGA,181416.000,4308.4144,N,07726.3728,W,2,06,1.54,162.7,M,-34.4,M,0000,0000*5C
$GPRMC,181416.250,A,4308.4158,N,07726.3724,W,18.92,9.75,080921,,,D*4F
$GPGGA,181416.500,4308.4171,N,07726.3720,W,2,06,1.54,163.0,M,-34.4,M,0000,0000*51
$GPRMC,181416.750,A,4308.4184,N,07726.3717,W,18.86,9.54,080921,,,D*4D
$GPGGA,181417.000,4308.4196,N,07726.3713,W,2,06,1.54,163.2,M,-34.4,M,0000,0000*5E
$GPRMC,181417.250,A,4308.4210,N,07726.3710,W,18.78,9.45,080921,,,D*41
$GPGGA,181417.500,4308.4222,N,07726.3707,W,2,06,1.54,163.4,M,-34.4,M,0000,0000*54
$GPRMC,181417.750,A,4308.4235,N,07726.3704,W,18.47,9.45,080921,,,D*4A
$GPGGA,181418.000,4308.4247,N,07726.3700,W,2,06,1.54,163.5,M,-34.4,M,0000,0000*5B
$GPRMC,181418.250,A,4308.4260,N,07726.3697,W,18.20,9.84,080921,,,D*47
$GPGGA,181418.500,4308.4271,N,07726.3694,W,2,06,1.54,163.8,M,-34.4,M,0000,0000*5A
$GPRMC,181418.750,A,4308.4283,N,07726.3691,W,17.73,10.18,080921,,,D*7D
$GPGGA,181419.000,4308.4295,N,07726.3688,W,2,06,1.54,163.9,M,-34.4,M,0000,0000*58
$GPRMC,181419.250,A,4308.4307,N,07726.3685,W,17.47,10.73,080921,,,D*7B
$GPGGA,181419.500,4308.4319,N,07726.3682,W,2,06,1.54,164.0,M,-34.4,M,0000,0000*5C
$GPRMC,181419.750,A,4308.4331,N,07726.3679,W,17.30,10.45,080921,,,D*7D
$GPGGA,181420.000,4308.4343,N,07726.3676,W,2,06,1.54,164.1,M,-34.4,M,0000,0000*56
$GPRMC,181420.250,A,4308.4355,N,07726.3673,W,17.23,10.81,080921,,,D*70
$GPGGA,181420.500,4308.4366,N,07726.3670,W,2,06,1.54,164.1,M,-34.4,M,0000,0000*52
$GPRMC,181420.750,A,4308.4378,N,07726.3667,W,17.07,10.33,080921,,,D*70
$GPGGA,181421.000,4308.4390,N,07726.3664,W,2,06,1.54,164.1,M,-34.4,M,0000,0000*5A
$GPRMC,181421.250,A,4308.4402,N,07726.3661,W,17.11,10.02,080921,,,D*7D
$GPGGA,181421.500,4308.4414,N,07726.3658,W,2,06,1.54,164.1,M,-34.4,M,0000,0000*5B
$GPRMC,181421.750,A,4308.4425,N,07726.3655,W,17.12,8.99,080921,,,D*42
$GPGGA,181422.000,4308.4437,N,07726.3653,W,2,06,1.54,164.0,M,-34.4,M,0000,0000*56
$GPRMC,181422.250,A,4308.4448,N,07726.3650,W,16.91,8.78,080921,,,D*4F
$GPGGA,181422.500,4308.4459,N,07726.3648,W,2,06,1.54,164.0,M,-34.4,M,0000,0000*51
$GPRMC,181422.750,A,4308.4470,N,07726.3645,W,16.82,8.31,080921,,,D*4A
$GPGGA,181423.000,4308.4481,N,07726.3643,W,2,06,1.54,164.1,M,-34.4,M,0000,0000*5A
$GPRMC,181423.250,A,4308.4492,N,07726.3640,W,16.53,8.43,080921,,,D*4E
$GPGGA,181423.500,4308.4502,N,07726.3638,W,2,06,1.54,164.2,M,-34.4,M,0000,0000*5A
$GPRMC,181423.750,A,4308.4512,N,07726.3636,W,15.89,8.88,080921,,,D*40
$GPGGA,181424.000,4308.4520,N,07726.3635,W,2,06,1.54,164.2,M,-34.4,M,0000,0000*55
$GPRMC,181424.250,A,4308.4528,N,07726.3633,W,14.50,8.83,080921,,,D*40
$GPGGA,181424.500,4308.4535,N,07726.3632,W,2,06,1.54,164.3,M,-34.4,M,0000,0000*52
$GPRMC,181424.750,A,4308.4542,N,07726.3629,W,13.05,10.52,080921,,,D*70
$GPGGA,181425.000,4308.4549,N,07726.3627,W,2,06,1.54,164.5,M,-34.4,M,0000,0000*5F
$GPRMC,181425.250,A,4308.4556,N,07726.3624,W,12.01,12.56,080921,,,D*7F
$GPGGA,181425.500,4308.4562,N,07726.3621,W,2,06,1.54,164.7,M,-34.4,M,0000,0000*57
$GPRMC,181425.750,A,4308.4568,N,07726.3618,W,10.77,16.57,080921,,,D*7E
$GPGGA,181426.000,4308.4571,N,07726.3613,W,2,06,1.54,164.8,M,-34.4,M,0000,0000*5D
$GPRMC,181426.250,A,4308.4575,N,07726.3611,W,9.33,21.03,080921,,,D*40
$GPGGA,181426.500,4308.4579,N,07726.3610,W,2,06,1.54,164.8,M,-34.4,M,0000,0000*53
$GPRMC,181426.750,A,4308.4583,N,07726.3608,W,8.29,19.57,080921,,,D*44
$GPGGA,181427.000,4308.4585,N,07726.3607,W,2,06,1.54,164.9,M,-34.4,M,0000,0000*53
$GPRMC,181427.250,A,4308.4587,N,07726.3606,W,6.88,19.98,080921,,,D*4C
$GPGGA,181427.500,4308.4588,N,07726.3605,W,2,06,1.54,164.7,M,-34.4,M,0000,0000*57
$GPRMC,181427.750,A,4308.4589,N,07726.3605,W,5.45,20.23,080921,,,D*4C
$GPGGA,181428.000,4308.4590,N,07726.3606,W,2,06,1.54,164.8,M,-34.4,M,0000,0000*58
$GPRMC,181428.250,A,4308.4593,N,07726.3605,W,4.44,13.57,080921,,,D*4E
$GPGGA,181428.500,4308.4597,N,07726.3606,W,2,06,1.54,164.9,M,-34.4,M,0000,0000*5B
$GPRMC,181428.750,A,4308.4600,N,07726.3607,W,4.64,357.41,080921,,,D*76
$GPGGA,181429.000,4308.4603,N,07726.3610,W,2,06,1.54,164.9,M,-34.4,M,0000,0000*56
$GPRMC,181429.250,A,4308.4606,N,07726.3613,W,5.15,344.18,080921,,,D*78
$GPGGA,181429.500,4308.4609,N,07726.3617,W,2,06,1.54,165.0,M,-34.4,M,0000,0000*56
$GPRMC,181429.750,A,4308.4615,N,07726.3622,W,6.60,330.13,080921,,,D*74
$GPGGA,181430.000,4308.4620,N,07726.3627,W,2,06,1.54,163.9,M,-34.4,M,0000,0000*5C
$GPRMC,181430.250,A,4308.4624,N,07726.3632,W,7.96,322.21,080921,,,D*70
$GPGGA,181430.500,4308.4628,N,07726.3638,W,2,06,1.54,163.7,M,-34.4,M,0000,0000*51
$GPRMC,181430.750,A,4308.4631,N,07726.3644,W,8.36,312.56,080921,,,D*76
$GPGGA,181431.000,4308.4636,N,07726.3653,W,2,06,1.54,163.3,M,-34.4,M,0000,0000*53
$GPRMC,181431.250,A,4308.4640,N,07726.3661,W,10.24,304.10,080921,,,D*4C
$GPGGA,181431.500,4308.4642,N,07726.3670,W,2,06,1.54,163.2,M,-34.4,M,0000,0000*55
$GPRMC,181431.750,A,4308.4643,N,07726.3681,W,11.54,291.78,080921,,,D*41
$GPGGA,181432.000,4308.4644,N,07726.3694,W,2,06,1.54,162.8,M,-34.4,M,0000,0000*54
$GPRMC,181432.250,A,4308.4647,N,07726.3708,W,13.54,285.78,080921,,,D*44
$GPGGA,181432.500,4308.4648,N,07726.3722,W,2,06,1.54,162.6,M,-34.4,M,0000,0000*5F
$GPRMC,181432.750,A,4308.4649,N,07726.3737,W,15.10,280.32,080921,,,D*4E
$GPGGA,181433.000,4308.4651,N,07726.3753,W,2,06,1.54,162.4,M,-34.4,M,0000,0000*57
$GPRMC,181433.250,A,4308.4652,N,07726.3769,W,16.60,279.02,080921,,,D*4A
$GPGGA,181433.500,4308.4654,N,07726.3786,W,2,06,1.54,162.0,M,-34.4,M,0000,0000*5B
$GPRMC,181433.750,A,4308.4656,N,07726.3804,W,18.32,278.83,080921,,,D*4E
$GPGGA,181434.000,4308.4658,N,07726.3823,W,2,06,1.54,161.6,M,-34.4,M,0000,0000*50
$GPRMC,181434.250,A,4308.4660,N,07726.3842,W,19.62,278.61,080921,,,D*43
$GPGGA,181434.500,4308.4662,N,07726.3862,W,2,06,1.54,161.2,M,-34.4,M,0000,0000*5D
$GPRMC,181434.750,A,4308.4664,N,07726.3881,W,20.52,278.54,080921,,,D*42
$GPGGA,181435.000,4308.4666,N,07726.3901,W,2,06,1.54,161.0,M,-34.4,M,0000,0000*5B
$GPRMC,181435.250,A,4308.4667,N,07726.3921,W,20.87,278.60,080921,,,D*41
$GPGGA,181435.500,4308.4669,N,07726.3942,W,2,06,1.54,160.7,M,-34.4,M,0000,0000*50
$GPRMC,181435.750,A,4308.4671,N,07726.3962,W,21.14,278.35,080921,,,D*4F
$GPGGA,181436.000,4308.4673,N,07726.3983,W,2,06,1.54,160.6,M,-34.4,M,0000,0000*51
$GPRMC,181436.250,A,4308.4676,N,07726.4004,W,21.26,277.93,080921,,,D*42
$GPGGA,181436.500,4308.4678,N,07726.4025,W,2,06,1.54,160.4,M,-34.4,M,0000,0000*5F
$GPRMC,181436.750,A,4308.4680,N,07726.4046,W,21.94,277.72,080921,,,D*4E
$GPGGA,181437.000,4308.4682,N,07726.4068,W,2,06,1.54,160.3,M,-34.4,M,0000,0000*50
$GPRMC,181437.250,A,4308.4684,N,07726.4091,W,22.87,277.82,080921,,,D*4A
$GPGGA,181437.500,4308.4687,N,07726.4114,W,2,06,1.54,160.0,M,-34.4,M,0000,0000*59
$GPRMC,181437.750,A,4308.4689,N,07726.4138,W,23.98,278.41,080921,,,D*4F
$GPGGA,181438.000,4308.4692,N,07726.4162,W,2,06,1.54,159.7,M,-34.4,M,0000,0000*5B
$GPRMC,181438.250,A,4308.4694,N,07726.4186,W,24.69,278.08,080921,,,D*48
$GPGGA,181438.500,4308.4696,N,07726.4211,W,2,06,1.54,159.6,M,-34.4,M,0000,0000*5C
$GPRMC,181438.750,A,4308.4698,N,07726.4235,W,25.03,278.02,080921,,,D*4D
$GPGGA,181439.000,4308.4701,N,07726.4260,W,2,06,1.54,159.6,M,-34.4,M,0000,0000*51
$GPRMC,181439.250,A,4308.4704,N,07726.4285,W,24.98,278.88,080921,,,D*47
$GPGGA,181439.500,4308.4707,N,07726.4309,W,2,06,1.54,159.4,M,-34.4,M,0000,0000*5E
$GPRMC,181439.750,A,4308.4710,N,07726.4332,W,24.26,280.48,080921,,,D*44
$GPGGA,181440.000,4308.4714,N,07726.4355,W,2,06,1.54,159.4,M,-34.4,M,0000,0000*5E
$GPRMC,181440.250,A,4308.4715,N,07726.4377,W,23.19,280.15,080921,,,D*48
$GPGGA,181440.500,4308.4717,N,07726.4398,W,2,06,1.54,159.2,M,-34.4,M,0000,0000*5F
$GPRMC,181440.750,A,4308.4719,N,07726.4418,W,21.73,278.90,080921,,,D*4B
$GPGGA,181441.000,4308.4721,N,07726.4438,W,2,06,1.54,159.0,M,-34.4,M,0000,0000*51
$GPRMC,181441.250,A,4308.4722,N,07726.4457,W,20.28,278.18,080921,,,D*43
$GPGGA,181441.500,4308.4722,N,07726.4475,W,2,06,1.54,158.9,M,-34.4,M,0000,0000*56
$GPRMC,181441.750,A,4308.4720,N,07726.4494,W,19.34,272.55,080921,,,D*4F
$GPGGA,181442.000,4308.4714,N,07726.4510,W,2,06,1.54,158.9,M,-34.4,M,0000,0000*57
$GPRMC,181442.250,A,4308.4710,N,07726.4527,W,18.35,262.36,080921,,,D*47
$GPGGA,181442.500,4308.4706,N,07726.4544,W,2,06,1.54,158.9,M,-34.4,M,0000,0000*50
$GPRMC,181442.750,A,4308.4701,N,07726.4560,W,17.01,254.87,080921,,,D*46
$GPGGA,181443.000,4308.4695,N,07726.4576,W,2,06,1.54,158.7,M,-34.4,M,0000,0000*50
$GPRMC,181443.250,A,4308.4689,N,07726.4590,W,16.64,247.29,080921,,,D*48
$GPGGA,181443.500,4308.4682,N,07726.4604,W,2,06,1.54,158.3,M,-34.4,M,0000,0000*51
$GPRMC,181443.750,A,4308.4675,N,07726.4617,W,16.32,239.11,080921,,,D*43
$GPGGA,181444.000,4308.4666,N,07726.4630,W,2,06,1.54,158.0,M,-34.4,M,0000,0000*5D
$GPRMC,181444.250,A,4308.4658,N,07726.4643,W,17.01,234.56,080921,,,D*40
$GPGGA,181444.500,4308.4650,N,07726.4653,W,2,06,1.54,157.6,M,-34.4,M,0000,0000*51
$GPRMC,181444.750,A,4308.4640,N,07726.4664,W,16.74,227.96,080921,,,D*44
$GPGGA,181445.000,4308.4629,N,07726.4672,W,2,06,1.54,157.3,M,-34.4,M,0000,0000*5D
$GPRMC,181445.250,A,4308.4617,N,07726.4679,W,16.53,217.27,080921,,,D*42
$GPGGA,181445.500,4308.4605,N,07726.4685,W,2,06,1.54,156.9,M,-34.4,M,0000,0000*55
$GPRMC,181445.750,A,4308.4592,N,07726.4691,W,17.02,209.05,080921,,,D*45
$GPGGA,181446.000,4308.4580,N,07726.4697,W,2,06,1.54,156.6,M,-34.4,M,0000,0000*51
$GPRMC,181446.250,A,4308.4568,N,07726.4703,W,17.63,204.04,080921,,,D*47
$GPGGA,181446.500,4308.4554,N,07726.4708,W,2,06,1.54,156.4,M,-34.4,M,0000,0000*58
$GPRMC,181446.750,A,4308.4541,N,07726.4713,W,18.47,200.44,080921,,,D*41
$GPGGA,181447.000,4308.4528,N,07726.4718,W,2,06,1.54,156.1,M,-34.4,M,0000,0000*53
$GPRMC,181447.250,A,4308.4514,N,07726.4723,W,19.33,198.71,080921,,,D*40
$GPGGA,181447.500,4308.4500,N,07726.4728,W,2,06,1.54,155.8,M,-34.4,M,0000,0000*55
$GPRMC,181447.750,A,4308.4486,N,07726.4734,W,20.76,198.08,080921,,,D*4C
$GPGGA,181448.000,4308.4471,N,07726.4740,W,2,06,1.54,155.4,M,-34.4,M,0000,0000*5A
$GPRMC,181448.250,A,4308.4456,N,07726.4746,W,21.89,198.02,080921,,,D*45
$GPGGA,181448.500,4308.4440,N,07726.4752,W,2,06,1.54,155.2,M,-34.4,M,0000,0000*58
$GPRMC,181448.750,A,4308.4424,N,07726.4758,W,23.28,198.07,080921,,,D*46
$GPGGA,181449.000,4308.4407,N,07726.4765,W,2,06,1.54,154.9,M,-34.4,M,0000,0000*51
$GPRMC,181449.250,A,4308.4391,N,07726.4772,W,24.11,198.45,080921,,,D*48
$GPGGA,181449.500,4308.4374,N,07726.4779,W,2,06,1.54,154.6,M,-34.4,M,0000,0000*55
$GPRMC,181449.750,A,4308.4356,N,07726.4786,W,25.26,198.73,080921,,,D*4D
$GPGGA,181450.000,4308.4339,N,07726.4794,W,2,06,1.54,154.2,M,-34.4,M,0000,0000*56
$GPRMC,181450.250,A,4308.4321,N,07726.4801,W,26.18,198.56,080921,,,D*49
$GPGGA,181450.500,4308.4303,N,07726.4809,W,2,06,1.54,153.9,M,-34.4,M,0000,0000*5D
$GPRMC,181450.750,A,4308.4284,N,07726.4817,W,26.68,199.09,080921,,,D*49
$GPGGA,181451.000,4308.4266,N,07726.4825,W,2,06,1.54,153.7,M,-34.4,M,0000,0000*5B
$GPRMC,181451.250,A,4308.4248,N,07726.4833,W,27.02,198.74,080921,,,D*4D
$GPGGA,181451.500,4308.4229,N,07726.4841,W,2,06,1.44,153.3,M,-34.4,M,0000,0000*52
$GPRMC,181451.750,A,4308.4210,N,07726.4850,W,27.78,199.05,080921,,,D*4A
$GPGGA,181452.000,4308.4192,N,07726.4858,W,2,06,1.54,153.1,M,-34.4,M,0000,0000*5C
$GPRMC,181452.250,A,4308.4172,N,07726.4866,W,28.31,198.79,080921,,,D*46
$GPGGA,181452.500,4308.4153,N,07726.4874,W,2,06,1.54,153.0,M,-34.4,M,0000,0000*5B
$GPRMC,181452.750,A,4308.4134,N,07726.4883,W,28.82,198.13,080921,,,D*4E
$GPGGA,181453.000,4308.4115,N,07726.4891,W,2,06,1.54,152.9,M,-34.4,M,0000,0000*5E
$GPRMC,181453.250,A,4308.4095,N,07726.4900,W,28.78,198.36,080921,,,D*48
$GPGGA,181453.500,4308.4076,N,07726.4908,W,2,06,1.54,152.7,M,-34.4,M,0000,0000*50
$GPRMC,181453.750,A,4308.4057,N,07726.4917,W,29.14,198.19,080921,,,D*43
$GPGGA,181454.000,4308.4037,N,07726.4925,W,2,06,1.54,152.4,M,-34.4,M,0000,0000*5B
$GPRMC,181454.250,A,4308.4018,N,07726.4933,W,29.21,197.63,080921,,,D*48
$GPGGA,181454.500,4308.3998,N,07726.4941,W,2,06,1.54,152.2,M,-34.4,M,0000,0000*51
$GPRMC,181454.750,A,4308.3978,N,07726.4949,W,29.79,197.11,080921,,,D*40
$GPGGA,181455.000,4308.3957,N,07726.4957,W,2,06,1.54,152.0,M,-34.4,M,0000,0000*53
$GPRMC,181455.250,A,4308.3937,N,07726.4965,W,30.25,196.53,080921,,,D*47
$GPGGA,181455.500,4308.3917,N,07726.4973,W,2,06,1.54,151.8,M,-34.4,M,0000,0000*5F
